{
  "live": [
    {
      "type": "live",
      "id": "locality.355017",
      "name": "Singapore",
      "address": "Singapore, Singapore, Central Singapore Community Development Council",
      "longitude": 103.840943,
      "latitude": 1.288799
    },
    {
      "type": "live",
      "id": "place.29403243",
      "name": "Mumbai",
      "address": "Mumbai, Maharashtra, India",
      "longitude": 72.878723,
      "latitude": 19.077793
    },
    {
      "type": "live",
      "id": "place.31664235",
      "name": "New Delhi",
      "address": "New Delhi, Delhi, India",
      "longitude": 77.208773,
      "latitude": 28.613927
    }
  ],
  "inProgress": [
    {
      "type": "inProgress",
      "id": "place.6957135",
      "name": "London",
      "address": "London, Greater London, England, United Kingdom",
      "longitude": -0.127647,
      "latitude": 51.5073
    },
    {
      "type": "inProgress",
      "id": "place.47384688",
      "name": "Rome",
      "address": "Rome, Rome, Italy",
      "longitude": 12.476601,
      "latitude": 41.900196
    },
    {
      "type": "inProgress",
      "id": "place.894029",
      "name": "Paris",
      "address": "Paris, France",
      "longitude": 2.3483915,
      "latitude": 48.8534951
    }
  ],
  "demo": [
    {
      "type": "demo",
      "id": "place.233720044",
      "name": "New York City",
      "address": "New York City, New York, United States",
      "longitude": -74.0059945,
      "latitude": 40.7127492
    },
    {
      "type": "demo",
      "id": "place.192407788",
      "name": "Los Angeles",
      "address": "Los Angeles, California, United States",
      "longitude": -118.24168,
      "latitude": 34.054077
    }
  ]
}